{
"type": "FeatureCollection",
"name": "estaciones",
"crs": { "type": "name", "properties": { "name": "urn:ogc:def:crs:OGC:1.3:CRS84" } },
"features": [
{ "type": "Feature", "properties": { "OID_": 0, "Name": "01 CETRAM TÉLLEZ", "FolderPath": "TRONCAL Y ESTACIONES.kmz/TRONCAL Y ESTACIONES", "SymbolID": 0, "AltMode": -1, "Base": 0.0, "HasLabel": -1, "LabelID": 0, "NUM_EST": "01" }, "geometry": { "type": "Point", "coordinates": [ -98.803027033999967, 20.011011860000053, 0.0 ] } },
{ "type": "Feature", "properties": { "OID_": 0, "Name": "02 GABRIEL MANCERA", "FolderPath": "TRONCAL Y ESTACIONES.kmz/TRONCAL Y ESTACIONES", "SymbolID": 0, "AltMode": -1, "Base": 0.0, "HasLabel": -1, "LabelID": 0, "NUM_EST": "02" }, "geometry": { "type": "Point", "coordinates": [ -98.808899854999936, 20.024564204000058, 0.0 ] } },
{ "type": "Feature", "properties": { "OID_": 0, "Name": "03 MATILDE", "FolderPath": "TRONCAL Y ESTACIONES.kmz/TRONCAL Y ESTACIONES", "SymbolID": 0, "AltMode": -1, "Base": 0.0, "HasLabel": -1, "LabelID": 0, "NUM_EST": "03" }, "geometry": { "type": "Point", "coordinates": [ -98.802609957999948, 20.031126925000024, 0.0 ] } },
{ "type": "Feature", "properties": { "OID_": 0, "Name": "04 EFRÉN REBOLLEDO", "FolderPath": "TRONCAL Y ESTACIONES.kmz/TRONCAL Y ESTACIONES", "SymbolID": 0, "AltMode": -1, "Base": 0.0, "HasLabel": -1, "LabelID": 0, "NUM_EST": "04" }, "geometry": { "type": "Point", "coordinates": [ -98.79922025999997, 20.034981745000039, 0.0 ] } },
{ "type": "Feature", "properties": { "OID_": 0, "Name": "05 TERCERA EDAD", "FolderPath": "TRONCAL Y ESTACIONES.kmz/TRONCAL Y ESTACIONES", "SymbolID": 0, "AltMode": -1, "Base": 0.0, "HasLabel": -1, "LabelID": 0, "NUM_EST": "05" }, "geometry": { "type": "Point", "coordinates": [ -98.794076184999938, 20.042178007000075, 0.0 ] } },
{ "type": "Feature", "properties": { "OID_": 0, "Name": "06 SAN ANTONIO", "FolderPath": "TRONCAL Y ESTACIONES.kmz/TRONCAL Y ESTACIONES", "SymbolID": 0, "AltMode": -1, "Base": 0.0, "HasLabel": -1, "LabelID": 0, "NUM_EST": "06" }, "geometry": { "type": "Point", "coordinates": [ -98.791315802999975, 20.047063571000024, 0.0 ] } },
{ "type": "Feature", "properties": { "OID_": 0, "Name": "07 EJÉRCITO MEXICANO", "FolderPath": "TRONCAL Y ESTACIONES.kmz/TRONCAL Y ESTACIONES", "SymbolID": 0, "AltMode": -1, "Base": 0.0, "HasLabel": -1, "LabelID": 0, "NUM_EST": "07" }, "geometry": { "type": "Point", "coordinates": [ -98.78961891299997, 20.050305698000045, 0.0 ] } },
{ "type": "Feature", "properties": { "OID_": 0, "Name": "08 FELIPE ÁNGELES", "FolderPath": "TRONCAL Y ESTACIONES.kmz/TRONCAL Y ESTACIONES", "SymbolID": 0, "AltMode": -1, "Base": 0.0, "HasLabel": -1, "LabelID": 0, "NUM_EST": "08" }, "geometry": { "type": "Point", "coordinates": [ -98.786646567999981, 20.056148808000046, 0.0 ] } },
{ "type": "Feature", "properties": { "OID_": 0, "Name": "09 CENTRO DE JUSTICIA", "FolderPath": "TRONCAL Y ESTACIONES.kmz/TRONCAL Y ESTACIONES", "SymbolID": 0, "AltMode": -1, "Base": 0.0, "HasLabel": -1, "LabelID": 0, "NUM_EST": "09" }, "geometry": { "type": "Point", "coordinates": [ -98.784604378999973, 20.059995915000059, 0.0 ] } },
{ "type": "Feature", "properties": { "OID_": 0, "Name": "10 VICENTE SEGURA", "FolderPath": "TRONCAL Y ESTACIONES.kmz/TRONCAL Y ESTACIONES", "SymbolID": 0, "AltMode": -1, "Base": 0.0, "HasLabel": -1, "LabelID": 0, "NUM_EST": "10" }, "geometry": { "type": "Point", "coordinates": [ -98.782446928999946, 20.06413202400006, 0.0 ] } },
{ "type": "Feature", "properties": { "OID_": 0, "Name": "11 JUAN C. DORIA", "FolderPath": "TRONCAL Y ESTACIONES.kmz/TRONCAL Y ESTACIONES", "SymbolID": 0, "AltMode": -1, "Base": 0.0, "HasLabel": -1, "LabelID": 0, "NUM_EST": "11" }, "geometry": { "type": "Point", "coordinates": [ -98.780298953999988, 20.068250043000035, 0.0 ] } },
{ "type": "Feature", "properties": { "OID_": 0, "Name": "12 HOSPITALES", "FolderPath": "TRONCAL Y ESTACIONES.kmz/TRONCAL Y ESTACIONES", "SymbolID": 0, "AltMode": -1, "Base": 0.0, "HasLabel": -1, "LabelID": 0, "NUM_EST": "12" }, "geometry": { "type": "Point", "coordinates": [ -98.776587750999965, 20.075311982000073, 0.0 ] } },
{ "type": "Feature", "properties": { "OID_": 0, "Name": "13 SEPH", "FolderPath": "TRONCAL Y ESTACIONES.kmz/TRONCAL Y ESTACIONES", "SymbolID": 0, "AltMode": -1, "Base": 0.0, "HasLabel": -1, "LabelID": 0, "NUM_EST": "13" }, "geometry": { "type": "Point", "coordinates": [ -98.774688648999984, 20.079077814000073, 0.0 ] } },
{ "type": "Feature", "properties": { "OID_": 0, "Name": "14 TECNOLÓGICO", "FolderPath": "TRONCAL Y ESTACIONES.kmz/TRONCAL Y ESTACIONES", "SymbolID": 0, "AltMode": -1, "Base": 0.0, "HasLabel": -1, "LabelID": 0, "NUM_EST": "14" }, "geometry": { "type": "Point", "coordinates": [ -98.77276016199994, 20.083259267000074, 0.0 ] } },
{ "type": "Feature", "properties": { "OID_": 0, "Name": "15 BICENTENAIO", "FolderPath": "TRONCAL Y ESTACIONES.kmz/TRONCAL Y ESTACIONES", "SymbolID": 0, "AltMode": -1, "Base": 0.0, "HasLabel": -1, "LabelID": 0, "NUM_EST": "15" }, "geometry": { "type": "Point", "coordinates": [ -98.771059817999969, 20.088344646000053, 0.0 ] } },
{ "type": "Feature", "properties": { "OID_": 0, "Name": "16 CENTRO MINERO", "FolderPath": "TRONCAL Y ESTACIONES.kmz/TRONCAL Y ESTACIONES", "SymbolID": 0, "AltMode": -1, "Base": 0.0, "HasLabel": -1, "LabelID": 0, "NUM_EST": "16" }, "geometry": { "type": "Point", "coordinates": [ -98.77093208399998, 20.090675908000037, 0.0 ] } },
{ "type": "Feature", "properties": { "OID_": 0, "Name": "17 ZONA PLATEADA", "FolderPath": "TRONCAL Y ESTACIONES.kmz/TRONCAL Y ESTACIONES", "SymbolID": 0, "AltMode": -1, "Base": 0.0, "HasLabel": -1, "LabelID": 0, "NUM_EST": "17" }, "geometry": { "type": "Point", "coordinates": [ -98.769759772999976, 20.094343217000073, 0.0 ] } },
{ "type": "Feature", "properties": { "OID_": 0, "Name": "18 TECNOLÓGICO DE MONTERREY", "FolderPath": "TRONCAL Y ESTACIONES.kmz/TRONCAL Y ESTACIONES", "SymbolID": 0, "AltMode": -1, "Base": 0.0, "HasLabel": -1, "LabelID": 0, "NUM_EST": "18" }, "geometry": { "type": "Point", "coordinates": [ -98.765765309999949, 20.098169452000036, 0.0 ] } },
{ "type": "Feature", "properties": { "OID_": 0, "Name": "19 ESTADIO HIDALGO", "FolderPath": "TRONCAL Y ESTACIONES.kmz/TRONCAL Y ESTACIONES", "SymbolID": 0, "AltMode": -1, "Base": 0.0, "HasLabel": -1, "LabelID": 0, "NUM_EST": "19" }, "geometry": { "type": "Point", "coordinates": [ -98.760697630999971, 20.103078523000022, 0.0 ] } },
{ "type": "Feature", "properties": { "OID_": 0, "Name": "20 CENTRAL DE AUTOBUSES", "FolderPath": "TRONCAL Y ESTACIONES.kmz/TRONCAL Y ESTACIONES", "SymbolID": 0, "AltMode": -1, "Base": 0.0, "HasLabel": -1, "LabelID": 0, "NUM_EST": "21" }, "geometry": { "type": "Point", "coordinates": [ -98.752064089999976, 20.106301677000033, 0.0 ] } },
{ "type": "Feature", "properties": { "OID_": 0, "Name": "21 CUNA DEL FÚTBOL", "FolderPath": "TRONCAL Y ESTACIONES.kmz/TRONCAL Y ESTACIONES", "SymbolID": 0, "AltMode": -1, "Base": 0.0, "HasLabel": -1, "LabelID": 0, "NUM_EST": "20" }, "geometry": { "type": "Point", "coordinates": [ -98.754939800999978, 20.108673261000035, 0.0 ] } },
{ "type": "Feature", "properties": { "OID_": 0, "Name": "22 SANTA JULIA", "FolderPath": "TRONCAL Y ESTACIONES.kmz/TRONCAL Y ESTACIONES", "SymbolID": 0, "AltMode": -1, "Base": 0.0, "HasLabel": -1, "LabelID": 0, "NUM_EST": "22" }, "geometry": { "type": "Point", "coordinates": [ -98.750877534999972, 20.11257134400006, 0.0 ] } },
{ "type": "Feature", "properties": { "OID_": 0, "Name": "22 PREPA UNO", "FolderPath": "TRONCAL Y ESTACIONES.kmz/TRONCAL Y ESTACIONES", "SymbolID": 0, "AltMode": -1, "Base": 0.0, "HasLabel": -1, "LabelID": 0, "NUM_EST": "23" }, "geometry": { "type": "Point", "coordinates": [ -98.74816676599994, 20.114727220000077, 0.0 ] } },
{ "type": "Feature", "properties": { "OID_": 0, "Name": "23O REVOLUCIÓN", "FolderPath": "TRONCAL Y ESTACIONES.kmz/TRONCAL Y ESTACIONES", "SymbolID": 0, "AltMode": -1, "Base": 0.0, "HasLabel": -1, "LabelID": 0, "NUM_EST": "23O" }, "geometry": { "type": "Point", "coordinates": [ -98.74263482899994, 20.116210257000034, 0.0 ] } },
{ "type": "Feature", "properties": { "OID_": 0, "Name": "24O MANUEL DUBLÁN", "FolderPath": "TRONCAL Y ESTACIONES.kmz/TRONCAL Y ESTACIONES", "SymbolID": 0, "AltMode": -1, "Base": 0.0, "HasLabel": -1, "LabelID": 0, "NUM_EST": "24O" }, "geometry": { "type": "Point", "coordinates": [ -98.739205997999989, 20.118590855000036, 0.0 ] } },
{ "type": "Feature", "properties": { "OID_": 0, "Name": "25O MIGUEL ALEMÁN", "FolderPath": "TRONCAL Y ESTACIONES.kmz/TRONCAL Y ESTACIONES", "SymbolID": 0, "AltMode": -1, "Base": 0.0, "HasLabel": -1, "LabelID": 0, "NUM_EST": "25O" }, "geometry": { "type": "Point", "coordinates": [ -98.734886040999982, 20.121738149000066, 0.0 ] } },
{ "type": "Feature", "properties": { "OID_": 0, "Name": "26 NIÑOS HÉROES", "FolderPath": "TRONCAL Y ESTACIONES.kmz/TRONCAL Y ESTACIONES", "SymbolID": 0, "AltMode": -1, "Base": 0.0, "HasLabel": -1, "LabelID": 0, "NUM_EST": "26" }, "geometry": { "type": "Point", "coordinates": [ -98.732909694999989, 20.124997338000071, 0.0 ] } },
{ "type": "Feature", "properties": { "OID_": 0, "Name": "27 CENTRO HISTÓRICO", "FolderPath": "TRONCAL Y ESTACIONES.kmz/TRONCAL Y ESTACIONES", "SymbolID": 0, "AltMode": -1, "Base": 0.0, "HasLabel": -1, "LabelID": 0, "NUM_EST": "27" }, "geometry": { "type": "Point", "coordinates": [ -98.73135264299998, 20.129187900000034, 0.0 ] } },
{ "type": "Feature", "properties": { "OID_": 0, "Name": "25 P PLAZA JUÁREZ", "FolderPath": "TRONCAL Y ESTACIONES.kmz/TRONCAL Y ESTACIONES", "SymbolID": 0, "AltMode": -1, "Base": 0.0, "HasLabel": -1, "LabelID": 0, "NUM_EST": "25P" }, "geometry": { "type": "Point", "coordinates": [ -98.736883705999958, 20.122843593000027, 0.0 ] } },
{ "type": "Feature", "properties": { "OID_": 0, "Name": "24P PARQUE DEL MAESTRO", "FolderPath": "TRONCAL Y ESTACIONES.kmz/TRONCAL Y ESTACIONES", "SymbolID": 0, "AltMode": -1, "Base": 0.0, "HasLabel": -1, "LabelID": 0, "NUM_EST": "24P" }, "geometry": { "type": "Point", "coordinates": [ -98.740379706999988, 20.120417959000065, 0.0 ] } },
{ "type": "Feature", "properties": { "OID_": 0, "Name": "23 P BIOPARQUE", "FolderPath": "TRONCAL Y ESTACIONES.kmz/TRONCAL Y ESTACIONES", "SymbolID": 0, "AltMode": -1, "Base": 0.0, "HasLabel": -1, "LabelID": 0, "NUM_EST": "23P" }, "geometry": { "type": "Point", "coordinates": [ -98.744958260999965, 20.11699980800006, 0.0 ] } }
]
}
